,name,type,state,longitude_deg,latitude_deg,zip_code
0,OLF Atlantic,MC Active,North Carolina,-76.349196,34.892465,28511
5,MCLB Barstow Yermo Area,MC Active,California,-116.870658,34.890728,92327
10,MCB Hawaii Puuloa-Oahu,MC Active,Hawaii,-157.98755,21.317336,96706
15,MC Trng Area Bellows,MC Active,Hawaii,-157.718944,21.364305,96795
20,MCB Hawaii Pearl City Annex,MC Active,Hawaii,-157.971384,21.383494,96782
25,MCB Camp Smith,MC Active,Hawaii,-157.905545,21.386382,96701
30,MCB Hawaii Manana Capehart,MC Active,Hawaii,-157.980813,21.400158,96782
35,MCAS Beaufort LB Housing,MC Active,South Carolina,-80.795354,32.464922,29906
40,MCAS Yuma Hsg-Off Base FY81,MC Active,Arizona,-114.656063,32.700712,85364
45,MCRD San Diego Former NTC,MC Active,California,-117.221101,32.729279,92106
50,ALF Bogue,MC Active,North Carolina,-77.03111,34.69111,28570
55,MCB Camp Lejeune West Site,MC Active,North Carolina,-77.4425,34.70972,28540
60,MCB Camp Lejeune Oak Grove,MC Active,North Carolina,-77.25333,35.02833,28585
65,Point Of Marsh Target,MC Active,North Carolina,-76.462103,35.01292,28516
70,MWTC Bridgeport,MC Active,California,-119.518459,38.58793,96107
75,Barry Goldwater Range,MC Active,Arizona,-114.083801,32.498529,
80,Choc Mt Air Gnry Rng,MC Active,California,-115.31068,33.312296,92257
85,MCSF Blount Island,MC Active,Florida,-81.525881,30.401781,32226
90,Twentynine Palms Main Base,MC Active,California,-116.138305,34.459633,
95,MCAS Beaufort,MC Active,South Carolina,-80.722494,32.473635,29906
100,MCAS Cherry Point,MC Active,North Carolina,-76.880481,34.903878,28532
105,MCAS Miramar,MC Active,California,-117.088083,32.876828,92131
110,MCAS Yuma,MC Active,Arizona,-114.602243,32.644429,85365
115,MCB Camp Lejeune,MC Active,North Carolina,-77.343356,34.662655,28547
120,MCB Camp Pendleton,MC Active,California,-117.423977,33.361911,92055
125,MCB Hawaii Kaneohe,MC Active,Hawaii,-157.751116,21.445444,96734
130,MCB Quantico,MC Active,Virginia,-77.448556,38.526431,22556
135,MCLB Albany,MC Active,Georgia,-84.054676,31.551141,31705
140,MCRD San Diego,MC Active,California,-117.197686,32.740169,92140
145,HQBN Henderson Hall Arlington,Army Active,Virginia,-77.073324,38.868976,22214
150,MCLB Barstow,MC Active,California,-116.954065,34.858915,92311
155,MCRD Beaufort Parris Island,MC Active,South Carolina,-80.695671,32.337364,29902
160,MCLB Albany Housing Area #1,MC Active,Georgia,-84.120107,31.601018,31705
165,Andersen AFB,Navy Active,Guam,144.895603,13.59791,
170,NAVBASE Guam Barrigada,Navy Active,Guam,144.828217,13.478814,
175,Dandan,Navy Active,Guam,144.736826,13.310824,
180,NAVBASE Guam Marbo,Navy Active,Guam,144.865312,13.488994,
185,"NAVBASE Guam Magazine Reservoir, Naval Magazine",Navy Active,Guam,144.686218,13.390278,
190,NAVBASE Guam Naval Magazine,Navy Active,Guam,144.693212,13.354763,
195,Naval Hospital,Navy Active,Guam,144.73995,13.473673,96910
200,Nimitz Hill,Navy Active,Guam,144.723155,13.466244,
205,Sasa Valley,Navy Active,Guam,144.694641,13.452588,
210,Tanguisson Point,Navy Active,Guam,144.808371,13.541631,
215,Tenjo Vista,Navy Active,Guam,144.687229,13.433204,
220,"NAVBASE Guam Finegayan, South",Navy Active,Guam,144.831262,13.549906,
225,NAVBASE Guam Harmon,Navy Active,Guam,144.8154,13.522074,96913
230,NAVBASE Guam Apra Heights,Navy Active,Guam,144.677707,13.401805,
235,Agana,Navy Active,Guam,144.764847,13.472875,96913
240,Arlington Service Center,Navy Active,Virginia,-77.080272,38.867463,22204
245,NSA Norfolk Fire Fighters School,Navy Active,Virginia,-76.322888,36.92153,23505
250,NAS Oceana Midway Manor,Navy Active,Virginia,-76.124553,36.801151,23453
255,NSA Norfolk New Gosport/NNSY,Navy Active,Virginia,-76.322466,36.809786,23702
260,NSA Norfolk SDA Area,Navy Active,Virginia,-76.316648,36.919846,23505
265,NSA Norfolk Lafayette Rvr Complex,Navy Active,Virginia,-76.302199,36.902087,23508
270,NSA Norfolk Stanley Court/NNSY,Navy Active,Virginia,-76.333256,36.798092,23702
275,NAVSUBASE New London Trident Park,Navy Active,Connecticut,-72.075188,41.396545,06340
280,NSA Norfolk Northwest Chesapke Va,Navy Active,Virginia,-76.267708,36.55834,23322
285,Elizabeth River Channel,Navy Active,Virginia,-76.33333,36.86667,23703
290,NSA Mechanicsburg Det Philadelphia Annex PNBC,Navy Active,Pennsylvania,-75.181403,39.893277,19112
295,Pinehurst Estates,AF Active,New Jersey,-74.328596,40.016159,08733
300,NSA Mechanicsburg Det Philadelphia PA,Navy Active,Pennsylvania,-75.09583,40.03944,19149
305,Waterfront Earle,Navy Active,New Jersey,-74.070512,40.420638,07718
310,NOSC Pittsburgh,Navy Reserve,Pennsylvania,-80.0,40.43861,15222
315,NSA Norfolk South Gate,Navy Active,Virginia,-76.295329,36.803788,23704
320,NSA Norfolk St Helena Norfolk,Navy Active,Virginia,-76.289205,36.825446,23523
325,Craney Island,Navy Active,Virginia,-76.345129,36.889316,23703
330,Yorktown Fuel Depot,Navy Active,Virginia,-76.486462,37.215805,23692
335,NOSC Richmond VA,Navy Reserve,Virginia,-77.43583,37.5375,23219
340,NAVSUBASE New London Mitchel Field,Navy Active,New York,-73.600171,40.73139,11530
345,NAVSUBASE New London Mitchel Manor 1,Navy Active,New York,-73.575708,40.711199,11554
350,NAVSUBASE New London Mitchel Manor 2,Navy Active,New York,-73.57535,40.707547,11554
355,NUWC Fishers Island,Navy Active,New York,-72.01,41.255,06390
360,NAVSUBASE New London Conning Towers,Navy Active,Connecticut,-72.07722,41.37,06340
365,NAVSUBASE New London Dolphin Gardens,Navy Active,Connecticut,-72.081576,41.376591,06340
370,NAVSUBASE New London Polaris Park,Navy Active,Connecticut,-72.081576,41.375613,06340
375,NAVSUBASE New London Nautilus Park 2nd Inc,Navy Active,Connecticut,-72.05917,41.37639,06340
380,NAVSUBASE New London Nautilus Park 1st Inc,Navy Active,Connecticut,-72.06583,41.37694,06340
385,NAVSUBASE New London Nautilus Park 3rd Inc,Navy Active,Connecticut,-72.073968,41.382972,06340
390,Naval Support Unit Saratoga Springs,Navy Active,New York,-73.821711,43.080075,12866
395,Fort Adams RI,Navy Active,Rhode Island,-71.339975,41.47542,02840
400,NS Newport Melville,Navy Active,Rhode Island,-71.278938,41.584459,02871
405,Gould Island RI,Navy Active,Rhode Island,-71.34583,41.53889,02835
410,NAVPRO Pittsfield,Navy Active,Massachusetts,-73.25389,42.44806,01201
415,NOSC Rochester NY,Navy Reserve,New York,-77.66667,43.11667,14624
420,NAS Brunswick McKeen Street,Navy Active,Maine,-69.98556,43.90194,04011
425,NAS Brunswick Topsham,Navy Active,Maine,-69.965,43.94583,04086
430,NAS Portsmouth Redington Township,Navy Active,Maine,-70.43333,45.01667,04983
435,NAS Oceana Dam Neck,Navy Active,Virginia,-75.960013,36.78064,23454
440,NAS Brunswick,Navy Active,Maine,-69.931875,43.889075,04011
445,NAWCADLKE Lakehurst,AF Active,New Jersey,-74.351661,40.035836,08527
450,NAS JRB Willow Grove,Navy Active,Pennsylvania,-75.146861,40.200724,19090
455,NAS Oceana,Navy Active,Virginia,-76.027426,36.818291,23460
460,NS Norfolk,Navy Active,Virginia,-76.299056,36.943507,23511
465,NSA Mechanicsburg,Navy Active,Pennsylvania,-76.98627,40.228382,17050
470,NSA Norfolk NSY,Navy Active,Virginia,-76.299318,36.81472,23704
475,Naval Medical Center Portsmouth,Navy Active,Virginia,-76.307986,36.846121,23704
480,ALF Fentress Chesapeake,Navy Active,Virginia,-76.133055,36.694245,23322
485,NSA Norfolk St Juliens Creek Annex,Navy Active,Virginia,-76.310885,36.786062,23323
490,NSA Norfolk,Navy Active,Virginia,-76.303216,36.92329,23551
495,Cheatham Annex,Navy Active,Virginia,-76.607202,37.285613,23185
500,NWS Yorktown,Navy Active,Virginia,-76.585581,37.244873,23691
505,NSA South Potomac,Navy Active,Virginia,-77.032536,38.339863,22448
510,NAS Portsmouth NCTS Cutler VLF Area,Navy Active,Maine,-67.28509,44.649271,04626
515,NSY Portsmouth,Navy Active,Maine,-70.734291,43.080636,03904
520,NS Newport,Navy Active,Rhode Island,-71.31934,41.517383,02841
525,NWS Earle NJ,Navy Active,New Jersey,-74.157118,40.267612,07722
530,NAVSUBASE New London,Navy Active,Connecticut,-72.086273,41.39828,06349
535,Harvey Point NC,Navy Active,North Carolina,-76.32731,36.098402,27944
540,Glenview,Navy Active,Illinois,-87.835238,42.092624,60026
545,Fort Sheridan,Navy Active,Illinois,-87.804715,42.211172,60035
550,NSWC Carderock Div,Navy Active,Tennessee,-90.14127,35.088274,38106
555,NOSC Battle Creek,Navy Reserve,Michigan,-85.265114,42.322918,49037
560,NOSC Columbus,Navy Reserve,Ohio,-82.945997,39.819925,43217
565,NOSC Minneapolis,Navy Reserve,Minnesota,-93.221025,44.896151,55450
570,NOSC Knoxville,Navy Reserve,Tennessee,-83.94973,35.93103,37920
575,NOSC Tulsa OK,Navy Reserve,Oklahoma,-95.93139,36.135,74114
580,NOSC Kansas City,Navy Reserve,Missouri,-94.548439,39.041557,64128
585,NOSC Toledo Oh,Navy Reserve,Ohio,-83.556,41.569339,43551
590,GL Camp JPJ,Navy Active,Illinois,-87.853864,42.3,60064
595,GL Forrestal Village,Navy Active,Illinois,-87.867553,42.300449,60088
600,NOSC Saint Paul MN,Navy Reserve,Minnesota,-93.33333,44.86667,55435
605,NSA Midsouth Memphis,Navy Active,Tennessee,-89.872634,35.333955,38053
610,NS Great Lakes,Navy Active,Illinois,-87.841307,42.312446,60088
615,NSA Crane,Navy Active,Indiana,-86.812566,38.841176,47581
620,NSA South Potomac Stump Neck Area,Navy Active,Maryland,-77.206684,38.54815,20640
625,Naval Academy North Severn,Navy Active,Maryland,-76.481952,38.98057,21402
630,Bellevue,Navy Active,District of Columbia,-77.019212,38.825736,20032
635,NSA Washington,Navy Active,District of Columbia,-76.994837,38.874374,20003
640,NS Anacostia,Navy Active,District of Columbia,-77.010127,38.856605,20373
645,NSWC Carderock,Navy Active,Maryland,-77.192261,38.974848,20817
650,NSWC Indian Head,Navy Active,Maryland,-77.185259,38.585323,20640
655,NSA Annapolis,Navy Active,Maryland,-76.468768,38.987539,21402
660,NSA North Potomac,Navy Active,District of Columbia,-77.066985,38.921621,20008
665,Naval Research Lab,Navy Active,District of Columbia,-77.024518,38.823972,20375
670,NDept Potomac Annex,Navy Active,District of Columbia,-77.050905,38.894165,20520
675,NMIC Suitland,Navy Active,Maryland,-76.936377,38.848407,20020
680,NSA Annapolis - Naval Station,Navy Active,Maryland,-76.465532,38.994346,21402
685,Midway Research Center,Navy Active,Virginia,-77.37083,38.4989,22554
690,Blossom Point MD,Navy Active,Maryland,-77.08889,38.43058,20693
695,NSA South Potomac Pumpkin Neck,Navy Active,Virginia,-77.03,38.30167,22485
700,NSA Annapolis Gambrills Md,Navy Active,Maryland,-76.67028,39.05914,21054
705,NSA Annapolis Chesapeake Bay Detach,Navy Active,Maryland,-76.533538,38.658157,20732
710,Dobbins AFB,Navy Active,Georgia,-84.537,33.916884,30069
715,NAS Kingsville King Ranch,Navy Active,Texas,-98.107031,27.524898,78332
720,NSGA Sabana Seca PR,Navy Active,Puerto Rico,-66.19,18.43167,00949
725,Whiting Pines,Navy Active,Florida,-87.060671,30.626011,32570
730,NAS Jacksonville - Yellow Water Housing,Navy Active,Florida,-81.925747,30.234689,32221
735,NAS Key West Trumbo Point Annex,Navy Active,Florida,-81.792043,24.564011,33040
740,NAS Key West Truman Annex,Navy Active,Florida,-81.805422,24.546489,33040
745,NAS Key West Peary Court,Navy Active,Florida,-81.79306,24.56056,33040
750,Pico Del Este - AFWTF,Navy Active,Puerto Rico,-65.63333,18.25,00735
755,Pineros Island,Navy Active,Puerto Rico,-65.63333,18.25,00735
760,Vieques West,Navy Active,Puerto Rico,-65.63333,18.25,00735
765,NAS Key West Dredgers Key-Sigsbee,Navy Active,Florida,-81.776111,24.576927,33040
770,NAS Key West Fleming Key Magazine,Navy Active,Florida,-81.797196,24.575337,33040
775,Naval Hospital Key West,Navy Active,Florida,-81.750831,24.568921,33040
780,NOTU Cape Canaveral,Navy Active,Florida,-80.592374,28.422792,
785,NAS JRB New Orleans,Navy Active,Louisiana,-90.013442,29.835413,70037
790,NWS Charleston Short Stay,Navy Active,South Carolina,-79.988218,33.256259,29461
795,OLF Bravo,Navy Active,Mississippi,-88.830267,32.795833,39354
800,Fort Allen Puerto Rico,Navy Active,Puerto Rico,-66.503556,18.01253,00715
805,Corry Station,Navy Active,Florida,-87.290008,30.402749,32507
810,NAS Pensacola,Navy Active,Florida,-87.317425,30.349903,32508
815,NAS Whiting Field Milton,Navy Active,Florida,-87.019783,30.712069,32570
820,Dixie Target Range,Navy Active,Texas,-98.719023,28.101667,78072
825,Pinecastle E.W. Range,Navy Active,Florida,-81.715309,29.114243,32702
830,NS Mayport,Navy Active,Florida,-81.416615,30.391218,32227
835,NSA Athens,Navy Active,Georgia,-83.406166,33.964753,30606
840,NWS Charleston,Navy Active,South Carolina,-79.962087,32.955659,29445
845,NAVSUBASE Kings Bay,Navy Active,Georgia,-81.528174,30.795618,31558
850,Barin Field,Navy Active,Alabama,-87.630243,30.39024,36530
855,NOLF Brewton,Navy Active,Alabama,-87.064281,31.048578,36426
860,NOLF Choctaw,Navy Active,Florida,-86.956709,30.506403,
865,NOLF Evergreen,Navy Active,Alabama,-87.04583,31.417997,36401
870,NOLF Holley,Navy Active,Florida,-86.892858,30.425012,32566
875,NOLF Santa Rosa,Navy Active,Florida,-86.938811,30.6093,32583
880,NOLF Silverhill,Navy Active,Alabama,-87.809445,30.561996,36526
885,NOLF Spencer,Navy Active,Florida,-87.139828,30.625316,32571
890,NOLF Summerdale,Navy Active,Alabama,-87.647294,30.508018,36580
895,NOLF Wolf,Navy Active,Alabama,-87.540776,30.344687,36530
900,Saufley Field,Navy Active,Florida,-87.341373,30.470444,32509
905,ALF Cabaniss,Navy Active,Texas,-97.436349,27.701336,78415
910,ALF Waldron,Navy Active,Texas,-97.313355,27.634249,78418
915,Naval Activity Puerto Rico,Navy Active,Puerto Rico,-65.638186,18.232598,00735
920,NSA Orlando,Navy Active,Florida,-81.196845,28.584093,32826
925,NSA New Orleans,Navy Active,Louisiana,-90.032521,29.9481,70114
930,NS Ingleside,Navy Active,Texas,-97.203652,27.828183,78336
935,NAS Atlanta,Navy Active,Georgia,-84.528582,33.913489,30060
940,NAS JRB Fort Worth,Navy Active,Texas,-97.433738,32.768876,76127
945,OLF Bronson,Navy Active,Florida,-87.414129,30.383729,32506
950,NAS Corpus Christi,Navy Active,Texas,-97.279621,27.692687,78418
955,NAS Kingsville,Navy Active,Texas,-97.813065,27.497164,78363
960,NAS Jacksonville,Navy Active,Florida,-81.686816,30.224048,32212
965,NAS Key West,Navy Active,Florida,-81.688868,24.573745,33040
970,NAS Meridian,Navy Active,Mississippi,-88.569272,32.553085,39335
975,NSA Panama City,Navy Active,Florida,-85.756247,30.175031,32407
980,CBC Gulfport,Navy Active,Mississippi,-89.126399,30.377948,39501
985,ALF Orange,Navy Active,Texas,-98.043354,27.896104,78332
990,OLF Whitehouse,Navy Active,Florida,-81.869939,30.355089,32220
995,CBC Gulfport Lakeside Housing,Navy Active,Mississippi,-88.524015,30.37142,39581
1000,NS Mayport FISC,Navy Active,Florida,-81.626745,30.399807,32226
1005,NS Mayport Ribault Bay Village,Navy Active,Florida,-81.425326,30.352899,32233
1010,NSA New Orleans East Bank,Navy Active,Louisiana,-90.031403,29.960629,70146
1015,NOSC Harlingen,Navy Reserve,Texas,-97.68556,26.18472,78550
1020,NOSC-MCRC El Paso,Navy Reserve,Texas,-106.48639,31.76,79901
1025,NOSC Miami,Navy Reserve,Florida,-80.18333,25.65,33149
1030,NOSC New Orleans,Navy Reserve,Louisiana,-90.06944,29.94806,70130
1035,NOSC San Antonio,Navy Reserve,Texas,-98.49583,29.43194,78205
1040,NOSC Houston,Navy Reserve,Texas,-95.36028,29.75722,77002
1045,NOSC-MCRC Atlanta,Navy Reserve,Georgia,-84.39361,33.75278,30303
1050,Back Island,Navy Active,Alaska,-131.626865,55.576095,99901
1055,Bremerton,Navy Active,Washington,-122.64255,47.560632,98337
1060,Bremerton RR,Navy Active,Washington,-123.106264,47.211095,98584
1065,"Fort Lawton, Magnolia",Navy Active,Washington,-122.421638,47.660727,98199
1070,Jackson Park Hsg,Navy Active,Washington,-122.692975,47.58714,98312
1075,Jim Creek,Navy Active,Washington,-121.92319,48.202793,98252
1080,Keyport NUWC,Navy Active,Washington,-122.622371,47.698869,98345
1085,Manchester,Navy Active,Washington,-122.546249,47.56568,98366
1090,Marysville WA,Navy Active,Washington,-122.177788,48.052307,98270
1095,NARL Barrow Camp Tr1,Navy Active,Alaska,-156.689632,71.312386,99723
1100,NOSC Portland,Navy Reserve,Oregon,-122.720523,45.571459,97217
1105,NAS Whidbey Island - Racon Hill,Navy Active,Washington,-122.661119,48.284106,98277
1110,Shipyard Puget Sound,Navy Active,Washington,-122.644354,47.554782,98337
1115,NOSC Spokane,Navy Reserve,Washington,-117.477614,47.705854,99205
1120,Bayview Idaho,Navy Active,Idaho,-116.56217,47.976146,83803
1125,Naval Weapons Systems Training Facility Boardman,Navy Active,Oregon,-119.68333,45.73333,97818
1130,NAS Whidbey Island Sea Plane Base,Navy Active,Washington,-122.594398,48.302969,98277
1135,NAS Whidbey Island,Navy Active,Washington,-122.660491,48.342988,98277
1140,NAVMAG Indian Island,Navy Active,Washington,-122.726146,48.053714,98339
1145,NAVBASE Kitsap Bremerton,Navy Active,Washington,-122.638109,47.559143,98337
1150,NS Everett,Navy Active,Washington,-122.219972,47.991433,98201
1155,OLF Coupeville,Navy Active,Washington,-122.632354,48.189523,98239
1160,Manana Housing/Pw Area,Navy Active,Hawaii,-157.978823,21.402386,96782
1165,Wahiawa,Navy Active,Hawaii,-158.00582,21.519794,96786
1170,NS Pearl Harbor,Navy Active,Hawaii,-157.954747,21.349292,96818
1175,PACMISRANFAC Hawaiian Area,Navy Active,Hawaii,-159.78394,22.028368,
1180,Makaha Ridge,Navy Active,Hawaii,-159.727325,22.130528,96796
1185,Kamokala Ridge,Navy Active,Hawaii,-159.754203,22.039006,
1190,Kalaeloa,Navy Active,Hawaii,-158.070826,21.321963,96707
1195,Aiea,Navy Active,Hawaii,-157.939524,21.377816,96701
1200,Honolulu,Navy Active,Hawaii,-157.925722,21.346202,96818
1205,Ewa,Navy Active,Hawaii,-157.994572,21.33967,96706
1210,Red Hill,Navy Active,Hawaii,-157.91111,21.3675,96818
1215,Waipahu,Navy Active,Hawaii,-157.990648,21.365535,96797
1220,Pearl City,Navy Active,Hawaii,-157.971021,21.379307,96782
1225,Waikele,Navy Active,Hawaii,-158.015912,21.404857,96797
1230,Waianae,Navy Active,Hawaii,-158.16111,21.42778,96792
1235,Kunia,Navy Active,Hawaii,-158.052414,21.476565,96786
1240,National Geospatial Intelligence Agency,Army Active,Maryland,-77.12,38.95,20816
1245,Walter Reed AMC Forest Glen,Army Active,Maryland,-77.054301,39.013611,20910
1250,Walter Reed AMC Glen Haven,Army Active,Maryland,-77.04201,39.033516,20902
1255,Blossom Point Research Facility,Army Active,Maryland,-77.093191,38.421781,20693
1260,Neville Island Mnt Support Facility,Army Active,Pennsylvania,-77.08,41.75,16917
1265,Fort De Russy,Army Active,Hawaii,-157.834318,21.28094,96815
1270,Signal Cable Trunking System,Army Active,Hawaii,-157.9,21.3,96819
1275,Kipapa Ammo Storage Site,Army Active,Hawaii,-157.999454,21.448227,96789
1280,Waianae-Kai Military Reservation,Army Active,Hawaii,-158.190056,21.446369,96792
1285,USA Field Station Kunia,Army Active,Hawaii,-158.053233,21.474622,96786
1290,Dillingham Mil Res,Army Active,Hawaii,-158.125232,21.575191,96791
1295,Aliamanu Military Reservation,Army Active,Hawaii,-157.912394,21.360213,96818
1300,Helemano Military Reservation,Army Active,Hawaii,-158.019593,21.535688,96786
1305,Sp Forces Site Key West,Army Active,Florida,-81.8,24.56,33040
1310,Kilauea Mil Reserve,Army Active,Hawaii,-155.277983,19.43813,96785
1315,Kawaihae Mil Reserve,Army Active,Hawaii,-159.667304,21.955071,96796
1320,Pupukea Paalaa Uka Mil Road,Army Active,Hawaii,-155.723366,19.969524,96743
1325,Kahuku Training Area,Army Active,Hawaii,-157.993827,21.668496,96731
1330,Fort Campbell TN,Army Active,Tennessee,-87.454819,36.637334,42223
1335,"Camp Frank D. Merrill, Dahlonega",Army Active,Georgia,-84.156459,34.71224,30513
1340,Destin Moreno Point,Army Active,Florida,-86.53,30.49,32542
1345,Fort Campbell KY,Army Active,Kentucky,-87.49,36.67,42262
1350,Lake Of The Ozarks Recreation,Army Active,Missouri,-92.75,38.01,65020
1355,Rivanna Station,Army Active,Virginia,-78.477257,38.029148,22902
1360,Fort Monmouth Evans,Army Active,New Jersey,-74.05,40.3,07724
1365,Fort Benning AL,Army Active,Alabama,-84.94,32.28,36856
1370,Fort Bliss AAA Ranges,Army Active,New Mexico,-106.503138,32.145382,88081
1375,England Authority,Army Active,Louisiana,-92.611087,31.161715,
1380,Fort Gordon Recreation Area,Army Active,Georgia,-82.0,33.48,30904
1385,Fort Benning GA,Army Active,Georgia,-84.83,32.4,31905
1390,Defense Distrib Depot Susq,Army Active,Pennsylvania,-76.84,40.21,17070
1395,Stewart Annex,Army Active,New York,-74.09462,41.492486,12553
1400,Lake City AAP,Army Active,Missouri,-94.250255,39.096867,64016
1405,US Army Joint Sys Mfg Ctr Lima,Army Active,Ohio,-84.13431,40.700006,45804
1410,Tooele Army Depot,Army Active,Utah,-112.411159,40.528839,84029
1415,Hunter Army Airfield,Army Active,Georgia,-81.153268,32.009846,31406
1420,Holston AAP,Army Active,Tennessee,-82.62677,36.538652,37660
1425,Milan AAP,Army Active,Tennessee,-88.717307,35.875239,
1430,Military Ocean Tml Sunny Point,Army Active,North Carolina,-77.969681,33.996412,28461
1435,Yakima Training Center,Army Active,Washington,-120.165725,46.744531,
1440,Fort Shafter,Army Active,Hawaii,-157.884033,21.344346,96819
1445,Pohakuloa Training Area,Army Active,Hawaii,-155.613951,19.688618,96740
1450,Schofield Bks Military Reservation,Army Active,Hawaii,-158.097846,21.495775,96786
1455,Wheeler Army Airfield,Army Active,Hawaii,-158.034735,21.473156,96786
1460,Blue Grass Army Depot,Army Active,Kentucky,-84.217617,37.698982,40475
1465,Fort Bragg,Army Active,North Carolina,-79.124193,35.113524,28376
1470,Camp Mackall,Army Active,North Carolina,-79.481555,35.030156,28347
1475,Fort Buchanan,Army Reserve,Puerto Rico,-66.121399,18.412879,00969
1480,Fort Gordon,Army Active,Georgia,-82.211396,33.366681,30805
1485,Fort Jackson,Army Active,South Carolina,-80.826592,34.040049,29044
1490,Fort Knox,Army Active,Kentucky,-85.883061,37.906748,40121
1495,Fort Stewart,Army Active,Georgia,-81.616523,31.993673,
1500,Fort Bliss,Army Active,Texas,-106.329364,31.873843,79918
1505,Fort Hood,Army Active,Texas,-97.76494,31.218199,76544
1510,Fort Polk,Army Active,Louisiana,-93.199946,31.058025,71459
1515,Fort Sill,Army Active,Oklahoma,-98.4834,34.682311,73503
1520,Hawthorne Army Depot,Army Active,Nevada,-118.654721,38.541133,89415
1525,Red River Army Depot,Army Active,Texas,-94.337602,33.426325,75570
1530,Fort A P Hill,Army Active,Virginia,-77.275862,38.117889,22538
1535,Fort Dix,AF Active,New Jersey,-74.531385,40.01076,08015
1540,Fort Drum,Army Active,New York,-75.592227,44.1244,13608
1545,Fort Eustis,Army Active,Virginia,-76.599719,37.134038,23604
1550,Fort George G Meade,Army Active,Maryland,-76.74372,39.105719,20755
1555,Fort Monmouth Main Post,Army Active,New Jersey,-74.051322,40.311601,07724
1560,Fort Lesley J McNair,Army Active,District of Columbia,-77.016674,38.866974,20024
1565,Fort Monroe,Army Active,Virginia,-76.308301,37.004526,23651
1570,Fort Myer,Army Active,Virginia,-77.080813,38.880764,22211
1575,Deseret Chemical Depot,Army Active,Utah,-112.342849,40.296854,84069
1580,Fort Lewis,Army Active,Washington,-122.576555,47.079681,98433
1585,Iowa AAP,Army Active,Iowa,-91.243162,40.792554,52623
1590,Kansas AAP,Army Active,Kansas,-95.181524,37.287395,67357
1595,Newport Chem Depot,Army Active,Indiana,-87.422399,39.850168,47854
1600,Umatilla Chem Depot,Army Active,Oregon,-119.440926,45.837119,97838
1605,Tripler AMC,Army Active,Hawaii,-157.889581,21.362031,96819
1610,Fort Gillem,Army Active,Georgia,-84.328512,33.622364,30297
1615,Fort McPherson,Army Active,Georgia,-84.434875,33.7072,30310
1620,Fort Sam Houston,Army Active,Texas,-98.437766,29.460394,78234
1625,Lone Star AAP,Army Active,Texas,-94.251616,33.437162,75567
1630,McAlester AAP,Army Active,Oklahoma,-95.939614,34.822061,74501
1635,White Sands Missile Range,Army Active,New Mexico,-106.519413,33.409805,
1640,Camp Bullis,Army Active,Texas,-98.576833,29.685101,78257
1645,Defense General Supply Center,Army Active,Virginia,-77.450588,37.41877,23237
1650,Volunteer AAP,Army Active,Tennessee,-85.123912,35.091091,37421
1655,Longhorn AAP,Army Active,Texas,-94.134926,32.668125,75661
1660,Green River Test Complex,Army Active,Utah,-110.101235,38.961642,84525
1665,Badger AAP,Army Active,Wisconsin,-89.737237,43.358871,53578
1670,Cornhusker AAP,Army Active,Nebraska,-98.491337,40.924607,68883
1675,Indiana AAP,Army Active,Indiana,-85.647445,38.406161,47111
1680,Joliet AAP Kankakee,Army Active,Illinois,-88.129005,41.38939,60421
1685,Rock Island Arsenal,Army Active,Illinois,-90.542517,41.517854,61201
1690,Defense Supply Center Columbus,Army Active,Ohio,-82.898792,39.979747,43213
1695,Savanna Depot Act,Army Active,Illinois,-90.34317,42.230846,61041
1700,Makua Mil Reserve,Army Active,Hawaii,-158.205005,21.531029,96791
1705,Aberdeen Proving Ground,Army Active,Maryland,-76.207259,39.407813,21001
1710,Carlisle Barracks,Army Active,Pennsylvania,-77.17354,40.209862,17013
1715,Charles E Kelly Support Facility,Army Active,Pennsylvania,-80.162245,40.398013,15071
1720,Fort Belvoir,Army Active,Virginia,-77.14488,38.700319,22060
1725,Fort Detrick,Army Active,Maryland,-77.42785,39.438818,21702
1730,Fort Hamilton,Army Active,New York,-74.02949,40.608636,11209
1735,Fort Lee,Army Active,Virginia,-77.33446,37.246351,23801
1740,Letterkenny Army Depot,Army Active,Pennsylvania,-77.691446,40.018124,17201
1745,Picatinny Arsenal,Army Active,New Jersey,-74.543819,40.954918,07801
1750,Radford AAP,Army Active,Virginia,-80.542083,37.187356,24141
1755,Scranton AAP,Army Active,Pennsylvania,-75.665909,41.404179,18505
1760,Tobyhanna Army Depot,Army Active,Pennsylvania,-75.429626,41.198776,18466
1765,USA Adelphi Laboratory Ctr,Army Active,Maryland,-76.960533,39.032881,20783
1770,Walter Reed AMC Main Post,Army Active,District of Columbia,-77.031124,38.974986,20012
1775,Watervliet Arsenal,Army Active,New York,-73.708135,42.719848,12189
1780,West Point Mil Reservation,Army Active,New York,-73.997996,41.371903,10928
1785,Detroit Arsenal,Army Active,Michigan,-83.041179,42.497188,48092
1790,Dugway Proving Ground,Army Active,Utah,-113.280078,40.158857,
1795,Fort Leavenworth,Army Active,Kansas,-94.918378,39.363937,66027
1800,Fort Leonard Wood,Army Active,Missouri,-92.157288,37.705785,65473
1805,Fort McCoy,Army Reserve,Wisconsin,-90.676571,44.033569,54656
1810,Fort Riley,Army Active,Kansas,-96.820786,39.186648,66514
1815,Langley FH Annex,AF Active,Virginia,-76.423707,37.097658,23665
1820,Arbuckle Airfield,AF Active,Florida,-81.342948,27.650094,33825
1825,Fort Fisher Recreation Site,AF Active,North Carolina,-77.913191,33.981138,28449
1830,Point Arena AFS,AF Active,California,-123.54618,38.892177,95468
1835,Boles Wells System Annex,AF Active,New Mexico,-105.93957,32.770485,88310
1840,Dakota Ridge FH Annex,AF Active,South Dakota,-103.195901,44.043155,57701
1845,Nellis System Annex,AF Active,Nevada,-115.1367,36.2394,89032
1850,Nellis AFB,AF Active,Nevada,-114.9828,36.2417,89191
1855,England AFB,AF Active,Louisiana,-92.541703,31.325555,71303
1860,Tonopah AFS Z164,AF Active,Nevada,-117.199995,38.140829,89049
1865,Tonopah Auxiliary Airfield Annex #2,AF Active,Nevada,-116.767373,37.88285,
1870,Wurtsmith AFB,AF Active,Michigan,-83.378493,44.453289,48750
1875,Offutt Communications Annex #2 Globecom,AF Active,Nebraska,-96.244206,41.346219,68022
1880,Offutt FH Annex,AF Active,Nebraska,-95.954188,41.126972,68123
1885,Nellis Air Force Range,AF Active,Nevada,-116.240366,37.402849,
1890,Avon Park AF Range,AF Active,Florida,-81.277891,27.647032,33898
1895,Beale AFB,AF Active,California,-121.395128,39.120929,95903
1900,Dyess AFB,AF Active,Texas,-99.83904,32.422811,79607
1905,Ellsworth AFB Site # 1,AF Active,South Dakota,-103.093531,44.151978,57769
1910,Holloman AFB,AF Active,New Mexico,-106.106007,32.87178,88330
1915,Offutt AFB,AF Active,Nebraska,-95.909731,41.116091,68113
1920,Seymour Johnson AFB,AF Active,North Carolina,-77.962485,35.34793,27531
1925,Shaw AFB,AF Active,South Carolina,-80.470501,33.974607,29154
1930,Langley AFB,AF Active,Virginia,-76.362449,37.08656,23665
1935,Moody AFB,AF Active,Georgia,-83.198561,30.969619,31699
1940,Davis-Monthan AFB,AF Active,Arizona,-110.882765,32.176866,85707
1945,Mountain Home AFB,AF Active,Idaho,-115.865866,43.048935,83648
1950,Creech AFB,AF Active,Nevada,-115.676337,36.587616,89018
1955,Myrtle Beach AFB,AF Active,South Carolina,-78.92925,33.678287,29577
1960,Lincoln Communication Annex,AF Active,California,-121.390857,38.869654,95648
1965,Isabela N00207-AB,AF Active,Puerto Rico,-67.065595,18.46367,00662
1970,Salinas N00207-JA,AF Active,Puerto Rico,-66.278163,18.005191,00751
1975,Kelly Field Annex,AF Active,Texas,-98.585492,29.379788,78243
1980,Keesler Training Annex #1,AF Active,Mississippi,-88.957522,30.407941,39531
1985,Lynn Haven Defense Fuel Sup,AF Active,Florida,-85.6449,30.2384,32444
1990,Columbus Auxiliary Airfield,AF Active,Mississippi,-88.579459,32.940331,39361
1995,Maxwell AFB Gunter Annex,AF Active,Alabama,-86.2459,32.4045,36115
2000,Luke Air Force Auxiliary Field #1,AF Active,Arizona,-112.528333,33.716667,85361
2005,Luke Waste Annex,AF Active,Arizona,-112.321837,33.538462,85307
2010,Kegelman Air Force Auxiliary Field,AF Active,Oklahoma,-98.1275,36.7385,73749
2015,Goodfellow AFB,AF Active,Texas,-100.405254,31.432618,76905
2020,Luke AFB,AF Active,Arizona,-112.360129,33.539913,85309
2025,Maxwell AFB,AF Active,Alabama,-86.356855,32.382503,36112
2030,Sheppard AFB,AF Active,Texas,-98.50067,33.978245,76311
2035,Tyndall AFB,AF Active,Florida,-85.549232,30.045058,32403
2040,The Barry M Goldwater Air Force Range,AF Active,Arizona,-113.055857,32.640623,
2045,Randolph AFB,AF Active,Texas,-98.278474,29.529821,78148
2050,Laughlin AFB,AF Active,Texas,-100.786642,29.353922,78840
2055,Vance AFB,AF Active,Oklahoma,-97.91163,36.341857,73705
2060,Columbus AFB,AF Active,Mississippi,-88.451121,33.641302,39705
2065,Altus AFB,AF Active,Oklahoma,-99.274512,34.663912,73521
2070,Gila Bend Air Force Auxiliary Field,AF Active,Arizona,-112.719641,32.886002,85337
2075,Lackland AFB,AF Active,Texas,-98.610535,29.388137,78236
2080,Camp Bullis Training Annex,AF Active,Texas,-98.570577,29.682624,78257
2085,Laughlin AFB Aux 1,AF Active,Texas,-100.280446,29.11835,78832
2090,Seguin Air Force Auxiliary Field,AF Active,Texas,-97.903976,29.565767,78155
2095,Barksdale AFB,AF Active,Louisiana,-93.599897,32.50015,
2100,Malmstrom AFB,AF Active,Montana,-111.182025,47.506486,59405
2105,Ozol Defense Fuel Support Point,AF Active,California,-122.089333,37.4303,94043
2110,Travis System Annex #2,AF Active,California,-121.9283,38.347,95687
2115,White Bluff Site #1,AF Active,Washington,-117.5447,47.657,99224
2120,Cusick Survival TS,AF Active,Washington,-117.394,48.4777,99119
2125,Fairchild AFB,AF Active,Washington,-117.64823,47.618545,99011
2130,Little Rock AFB,AF Active,Arkansas,-92.138514,34.903972,72099
2135,Cavalier AS,AF Active,North Dakota,-97.90307,48.724531,58220
2140,Grand Forks AFB,AF Active,North Dakota,-97.391251,47.955476,58205
2145,Defense Fuel Support Point,AF Active,North Dakota,-97.086139,47.948652,58203
2150,Pope AFB Munitions Storage Area,AF Active,North Carolina,-79.062464,35.188858,28326
2155,Pope AFB Site # 1,AF Active,North Carolina,-79.011578,35.172528,28308
2160,Grant Training Annex,AF Active,Washington,-119.29328,47.12065,98837
2165,Mukilteo Defense Fuel Support Point,AF Active,Washington,-122.29314,47.90508,98275
2170,McChord AFB,AF Active,Washington,-122.485184,47.134491,98438
2175,MacDill AFB,AF Active,Florida,-82.501021,27.843602,33616
2180,St Louis AFS,AF Active,Missouri,-90.208614,38.59138,63118
2185,Dover AFB,AF Active,Delaware,-75.466853,39.127777,19902
2190,McConnell AFB,AF Active,Kansas,-97.260274,37.625184,67221
2195,USAF Academy Auxiliary Airfield,AF Active,Colorado,-104.300908,38.758024,80808
2200,USAF Academy,AF Active,Colorado,-104.865348,38.994834,80840
2205,Edwards AFB,AF Active,California,-117.848968,34.890454,93523
2210,Robins AFB,AF Active,Georgia,-83.581376,32.6175,31098
2215,Eglin AFB Auxiliary Field #6,AF Active,Florida,-86.7389,30.62791,32542
2220,Eglin AFB,AF Active,Florida,-86.534355,30.47683,32542
2225,Hurlburt Field,AF Active,Florida,-86.691114,30.426906,32544
2230,Kirtland AFB,AF Active,New Mexico,-106.507282,35.003732,87123
2235,Wright-Patterson AFB,AF Active,Ohio,-84.035554,39.820568,45433
2240,Arnold AS,AF Active,Tennessee,-86.079443,35.364917,37355
2245,Tinker Support Annex,AF Active,Oklahoma,-97.360303,35.403697,73150
2250,Cape Cod AS,AF Active,Massachusetts,-70.53817,41.752597,02561
2255,Verona Test Annex,AF Active,New York,-75.611722,43.147439,13478
2260,Verona Defense Fuel Support Point,AF Active,New York,-75.591475,43.126742,13478
2265,Newport Test Annex #2 Transmitter,AF Active,New York,-75.045162,43.148198,13416
2270,Rome Laboratory,AF Active,New York,-75.409981,43.222583,13441
2275,Hanscom AFB,AF Active,Massachusetts,-71.277882,42.460089,01731
2280,Utah Test and Training Range South UT,AF Active,Utah,-113.608789,40.499607,
2285,UTTR - North,AF Active,Utah,-113.243495,40.988127,
2290,Hill AFB,AF Active,Utah,-111.992173,41.125209,84056
2295,Little Mountain Test Annex,AF Active,Utah,-112.246358,41.25218,84404
2300,Elmendorf AFB,AF Active,Alaska,-149.804971,61.265158,99506
2305,Stanly County Airport,AF Guard,North Carolina,-80.1432,35.42003,28127
2310,Four Lakes Communications Station (ANG),AF Guard,Washington,-117.548507,47.55132,99004
2315,Fort Carson Weapons Range,AF Guard,Colorado,-104.78215,38.74175,80913
2320,EWVRA Shepherd Field,AF Guard,West Virginia,-77.98627,39.401468,25405
2325,Greeley ANGS,AF Guard,Colorado,-104.631541,40.442378,80631
2330,Orange ANG Communications Station,AF Guard,Connecticut,-72.99677,41.27046,06477
2335,Ted Stevens IAP,AF Guard,Alaska,-149.973044,61.162881,99502
2340,Bradley IAP,AF Guard,Connecticut,-72.701009,41.935017,06026
2345,Capital Airport,AF Guard,Illinois,-89.667517,39.848003,62707
2350,Forbes Field (ANG),AF Guard,Kansas,-95.681356,38.961057,66619
2355,Barnes MAP (ANG),AF Guard,Massachusetts,-72.715656,42.158068,01085
2360,Great Falls IAP,AF Guard,Montana,-111.365012,47.476998,59404
2365,Klamath Falls Airport-Kingsley Field (ANG),AF Guard,Oregon,-121.743815,42.161052,97603
2370,Salt Lake City IAP,AF Guard,Utah,-111.956544,40.789097,84116
2375,Fresno Yosemite International (ANG),AF Guard,California,-119.710605,36.766622,93727
2380,Tulsa IAP,AF Guard,Oklahoma,-95.875609,36.216625,74115
2385,Fort Smith MAP,AF Guard,Arkansas,-94.367822,35.335377,72903
2390,Byrd Field,AF Guard,Virginia,-77.310007,37.496103,23250
2395,Charlotte/Douglas IAP,AF Guard,North Carolina,-80.929693,35.216104,28208
2400,Birmingham Airport,AF Guard,Alabama,-86.753554,33.570696,35212
2405,Key Field,AF Guard,Mississippi,-88.745571,32.342257,39307
2410,"Jackson IAP, Thompson Field",AF Guard,Mississippi,-90.082611,32.325436,39232
2415,Gulfport-Biloxi Regional Airport (ANG),AF Guard,Mississippi,-89.061038,30.410671,39507
2420,Jacksonville IAP,AF Guard,Florida,-81.70607,30.487076,32218
2425,Mansfield Lahm MAP,AF Guard,Ohio,-82.516116,40.812751,44903
2430,Harrisburg IAP (ANG),AF Guard,Pennsylvania,-76.753655,40.192473,17057
2435,Nashville IAP,AF Guard,Tennessee,-86.680247,36.125448,37217
2440,Memphis IAP,AF Guard,Tennessee,-89.981695,35.046606,38116
2445,Bangor IAP,AF Guard,Maine,-68.828548,44.815509,04401
2450,Burlington IAP,AF Guard,Vermont,-73.146699,44.473778,05403
2455,Hancock Field,AF Guard,New York,-76.103224,43.102424,13211
2460,Atlantic City IAP,AF Guard,New Jersey,-74.578689,39.459174,08215
2465,Hector IAP,AF Guard,North Dakota,-96.803923,46.91357,58102
2470,Duluth IAP,AF Guard,Minnesota,-92.176174,46.845624,55811
2475,Truax ANGB,AF Guard,Wisconsin,-89.335737,43.130943,53704
2480,Des Moines IAP,AF Guard,Iowa,-93.665624,41.54448,50321
2485,Fort Wayne IAP,AF Guard,Indiana,-85.176805,40.983829,46809
2490,Lincoln MAP,AF Guard,Nebraska,-96.754008,40.839907,68524
2495,New Castle County Airport,AF Guard,Delaware,-75.603103,39.683324,19720
2500,Spokane IAP (AGS),AF Guard,Washington,-117.534108,47.614316,99224
2505,Schenectady MAP (ANG),AF Guard,New York,-73.929287,42.850734,12302
2510,Rickenbacker IAP (ANG),AF Guard,Ohio,-82.943159,39.812854,43217
2515,Volk ANGB,AF Guard,Wisconsin,-90.26557,43.937358,54618
2520,Hensley Field AGS,AF Guard,Texas,-96.961372,32.744826,75211
2525,Hardwood Weapons Range (ANG),AF Guard,Wisconsin,-90.054017,44.234711,54457
2530,Smoky Hill ANG Range,AF Guard,Kansas,-97.831422,38.698929,67425
2535,Warren Grove Range,AF Guard,New Jersey,-74.399904,39.697496,08005
2540,Greater Peoria Regional Airport,AF Guard,Illinois,-89.691658,40.661381,61607
2545,Hulman Fld,AF Guard,Indiana,-87.295113,39.453966,47803
2550,Reno Tahoe IAP,AF Guard,Nevada,-119.761414,39.499677,89502
2555,Cheyenne Regional Apt,AF Guard,Wyoming,-104.820435,41.161759,82001
2560,Rosecrans MAP (139AG),AF Guard,Missouri,-94.902194,39.766787,64503
2565,Will Rogers World Airport,AF Guard,Oklahoma,-97.597155,35.394491,73159
2570,Yeager Airport,AF Guard,West Virginia,-81.589232,38.37319,25311
2575,Alpena County Regional Airport,AF Guard,Michigan,-83.560143,45.080726,49707
2580,W K Kellogg Airport,AF Guard,Michigan,-85.250641,42.310433,49037
2585,Martin State Apt,AF Guard,Maryland,-76.414919,39.331438,21220
2590,Louisville IAP-Standiford Fl,AF Guard,Kentucky,-85.738234,38.17722,40209
2595,McGhee Tyson Airport,AF Guard,Tennessee,-83.990194,35.810187,37701
2600,Sioux Gateway Apt/Col Bud Day Field (ANG),AF Guard,Iowa,-96.372633,42.395095,51111
2605,Quonset State Airport,AF Guard,Rhode Island,-71.417993,41.597517,02852
2610,Lambert-St Louis,AF Guard,Missouri,-90.363746,38.747203,63145
2615,Francis S. Gabreski Airport,AF Guard,New York,-72.643439,40.837116,11978
2620,Gen Mitchell IAP,AF Guard,Wisconsin,-87.887786,42.940792,53207
2625,Willow Grove JRB,AF Guard,Pennsylvania,-75.148679,40.194369,19090
2630,Luis Munoz Marin IAP,AF Guard,Puerto Rico,-65.992848,18.432381,00979
2635,Pease ANGB,AF Guard,New Hampshire,-70.820261,43.087289,03801
2640,Joe Foss Field,AF Guard,South Dakota,-96.746534,43.584799,57104
2645,Boise Air Terminal (ANG),AF Guard,Idaho,-116.221934,43.558938,83705
2650,McEntire Joint NGB,AF Guard,South Carolina,-80.800601,33.922946,29061
2655,Otis ANGB,AF Guard,Massachusetts,-70.543124,41.657662,02542
2660,Portland IAP,AF Guard,Oregon,-122.596056,45.57882,97218
2665,Stewart IAP,AF Guard,New York,-74.084423,41.501422,12550
2670,Tucson IAP,AF Guard,Arizona,-110.949316,32.130549,85706
2675,Selfridge ANGB,AF Guard,Michigan,-82.829523,42.619656,48045
2680,Pittsburgh IAP (ANG),AF Guard,Pennsylvania,-80.228241,40.4894,15108
2685,Springfield Beckley MAP,AF Guard,Ohio,-83.835445,39.849234,45502
2690,Coventry ANGS,AF Guard,Rhode Island,-71.597646,41.721569,02816
2695,North Smithfield ANGS,AF Guard,Rhode Island,-71.573949,41.970701,02896
2700,Badin ANGS,AF Guard,North Carolina,-80.151543,35.420263,28001
2705,Blue Ash ANGS,AF Guard,Ohio,-84.388781,39.246789,45242
2710,Camp Shelby Range,AF Guard,Mississippi,-89.204095,31.195722,39407
2715,Fort Dodge ANG,AF Guard,Iowa,-94.191283,42.552601,50501
2720,Fort Leonard Wood Range,AF Guard,Missouri,-92.140421,37.741242,65473
2725,Punta Borinquen Radar Site,AF Guard,Puerto Rico,-67.137024,18.435899,00603
2730,Punta Salinas Radar Site,AF Guard,Puerto Rico,-66.14436,18.45401,00949
2735,Vandenberg AFB,AF Active,California,-120.543047,34.708782,93437
2740,Clear AB,AF Active,Alaska,-149.18603,64.291271,99744
2745,Pillar Point AFS,AF Active,California,-122.49825,37.49726,94038
2750,Los Angeles AFB,AF Active,California,-118.381074,33.919156,90250
2755,Fort MacArthur FH Annex,AF Active,California,-118.285886,33.719726,90731
2760,Malabar Transmitter Annex,AF Active,Florida,-80.679543,28.020702,32907
2765,New Boston AS,AF Active,New Hampshire,-71.638689,42.937616,03070
2770,Los Angeles Air Force Annex No.4,AF Active,California,-118.235795,33.858679,90746
2775,Patrick AFB,AF Active,Florida,-80.607807,28.235151,32925
2780,Schriever AFB,AF Active,Colorado,-104.516195,38.802423,80930
2785,Cannon AFB,AF Active,New Mexico,-103.317513,34.386475,88103
2790,K I Sawyer AFB,AF Active,Michigan,-87.386645,46.348772,49841
2795,Minot AFB,AF Active,North Dakota,-101.338276,48.421018,58704
2800,F E Warren AFB,AF Active,Wyoming,-104.86272,41.166425,82001
2805,Birch Lake Recreation Annex,AF Active,Alaska,-146.6464,64.317346,99714
2810,Eareckson AS,AF Active,Alaska,174.104472,52.723687,
2815,Galena Airport,AF Active,Alaska,-156.954301,64.7412,99741
2820,Indian Mountain Long Range Radar Site,AF Active,Alaska,-153.704036,65.992876,
2825,King Salmon Airport,AF Active,Alaska,-156.661078,58.690591,99613
2830,Kokee AFS,AF Active,Hawaii,-159.645243,22.147972,96746
2835,Kaena Point Satellite Tracking Station,AF Active,Hawaii,-158.244504,21.564014,96792
2840,Hickam Petroleum Products Storage Annex,AF Active,Hawaii,-158.006568,21.438188,96789
2845,Andersen AFB VOR Annex,AF Active,Guam,144.819311,13.523174,96929
2850,Northwest Guam AFB,AF Active,Guam,144.8604,13.62425,
2855,Nikolski Radio Relay Site,AF Active,Alaska,-168.86778,52.93806,99638
2860,Cold Bay Long Range Radar Site,AF Active,Alaska,-162.76945,55.245227,99571
2865,Big Mountain Radio Relay Site,AF Active,Alaska,-155.22583,59.39083,
2870,Granite Mountain Radio Relay Site,AF Active,Alaska,-156.715,62.32389,
2875,North River Radio Relay Site,AF Active,Alaska,-160.65833,63.87639,99684
2880,Kalakaket Creek Radio Relay Site,AF Active,Alaska,-156.89917,64.47139,
2885,Tin City Long Range Radar Site,AF Active,Alaska,-167.92139,65.56306,99772
2890,Kotzebue Long Range Radar Site,AF Active,Alaska,-162.59667,66.89833,99752
2895,Flaxman Island Range Radar Site,AF Active,Alaska,-146.03583,70.19389,
2900,Lonely Short Range Radar Site,AF Active,Alaska,-153.24194,70.91056,
2905,Point Barrow Long Range Radar Site,AF Active,Alaska,-156.621357,71.328904,99723
2910,Oliktok Long Range Radar Site,AF Active,Alaska,-149.874466,70.496991,99734
2915,Haarp Research Station,AF Active,Alaska,-145.143848,62.416392,99586
2920,Point Lay Long Range Radar Site,AF Active,Alaska,-162.966888,69.743218,99759
2925,Cape Newenham Long Range Radar Site,AF Active,Alaska,-162.071168,58.650158,99559
2930,Chena River Research Site,AF Active,Alaska,-146.886943,64.773979,
2935,Fort Yukon Long Range Radar Site,AF Active,Alaska,-145.214397,66.560988,99740
2940,Blair Lake Air Force Rangeex,AF Active,Alaska,-147.707153,64.393915,
2945,Eielson AFB,AF Active,Alaska,-147.092851,64.670751,99702
2950,Hickam AFB,AF Active,Hawaii,-157.955215,21.3327,96853
2955,Barter Island Dew Station Bar,AF Active,Alaska,-143.588831,70.11841,99747
2960,Cape Romanzof Long Range Radar Site,AF Active,Alaska,-165.984943,61.785256,99662
2965,Tatalina Long Range Radar Site,AF Active,Alaska,-155.9828,62.90003,99627
2970,Sparrevohn Long Range Radar Site,AF Active,Alaska,-155.573991,61.097378,99557
2975,Wainwright Short Range Radar Site,AF Active,Alaska,-159.847705,70.619345,99782
2980,Cape Lisburne Long Range Radar Site,AF Active,Alaska,-166.047044,68.78753,99766
2985,Yukon Weapons Range,AF Active,Alaska,-145.237039,66.563736,99740
2990,DFAS Annex,AF Active,Maine,-67.912975,46.934421,04751
2995,Whiteman AFB,AF Active,Missouri,-93.554423,38.729419,65305
3000,Newington Defense Fuel Support Point,AF Active,New Hampshire,-70.814755,43.113771,03801
3005,Summerfield FH Site #1,AF Active,Maryland,-76.86,38.899,20785
3010,Governors Bridge Globecom Annex,AF Active,Maryland,-76.683,38.967,21054
3015,Brandywine Globecom Annex,AF Active,Maryland,-76.843,38.678,20613
3020,Andrews AFB,AF Active,Maryland,-76.874441,38.805162,20762
3025,Dobbins ARB,AF Reserve,Georgia,-84.517135,33.918763,30069
3030,Homestead AFB,AF Reserve,Florida,-80.389151,25.499534,33032
3035,Buckley Annex,AF Reserve,Colorado,-104.908156,39.716526,80230
3040,Niagara Falls,AF Reserve,New York,-78.947478,43.114052,14304
3045,Grissom ARB,AF Reserve,Indiana,-86.151834,40.659073,46970
3050,Homestead ARB,AF Reserve,Florida,-80.396287,25.486655,33039
3055,March ARB,AF Reserve,California,-117.254762,33.882923,92518
3060,Westover ARB,AF Reserve,Massachusetts,-72.536695,42.199154,01022
3065,Minneapolis-St Paul,AF Reserve,Minnesota,-93.205355,44.889812,55111
3070,Youngstown Joint ARS,AF Reserve,Ohio,-80.675453,41.268143,44473
3075,Camp Swift,Army Guard,Texas,-97.314733,30.219132,78602
3080,Camp Dodge Johnston TS,Army Guard,Iowa,-93.702093,41.700934,50131
3085,MTA Fort Wm Henry Harrison,Army Guard,Montana,-112.097676,46.61695,59602
3090,Fort Chaffee MTC,Army Guard,Arkansas,-94.291927,35.306938,72916
3095,VTS Catoosa,Army Guard,Georgia,-85.059066,34.932243,30736
3100,"Fort Pickett, ARNG MTC",Army Guard,Virginia,-77.90735,37.035513,23872
3105,NG MTA Limestone Hills,Army Guard,Montana,-111.578856,46.273805,59644
3110,MTC-H Camp Roberts,Army Guard,California,-120.743751,35.793674,93401
3115,NG Grayling Airfield,Army Guard,Michigan,-84.720557,44.673893,49738
3120,Fort Wingate Depot Activity,Army Active,New Mexico,-108.725006,35.53395,87301
3125,Camp Atterbury,Army Guard,Indiana,-86.023918,39.359227,46124
3130,MTA Camp Edwards,Army Guard,Massachusetts,-70.543829,41.71871,
3135,NG TS Ethan Allen Range,Army Guard,Vermont,-72.950661,44.48002,05465
3140,CTA Camp McCain,Army Guard,Mississippi,-89.709129,33.701261,38901
3145,MTA Camp Shelby,Army Guard,Mississippi,-89.242936,31.186953,39401
3150,MTA Camp Crowder Neosho,Army Guard,Missouri,-94.338045,36.818082,64850
3155,Fort McClellan ARNG Training Center,Army Guard,Alabama,-85.796617,33.731475,36206
3160,NG Greenlief TS/UTES 01,Army Guard,Nebraska,-98.281315,40.566648,68901
3165,Ravenna Training and Log Site,Army Guard,Ohio,-80.978006,41.205914,44444
3170,Camp Gruber,Army Guard,Oklahoma,-95.139162,35.717549,74464
3175,NG Mead TS/FMS 06/UTES 02,Army Guard,Nebraska,-96.487964,41.184834,68041
3180,Fort Wolters,Army Guard,Texas,-98.040384,32.845673,76067
3185,MTA Camp Santiago Rq 577,Army Guard,Puerto Rico,-66.28883,18.006697,00751
3190,CTC Fort Custer Trng Center,Army Guard,Michigan,-85.302923,42.334283,49012
3195,Fort Indiantown Gap,Army Guard,Pennsylvania,-76.569556,40.438332,17038
3200,Camp Ashland,Army Guard,Nebraska,-96.3369,41.079455,68003
3205,NG Camp Fogarty TS,Army Guard,Rhode Island,-71.4991,41.615996,02818
3210,McGuire AFB,AF Active,New Jersey,-74.588965,40.0287,08641
3215,Air Mobility Warfare Center,AF Active,New Jersey,-74.517,40.0063,08015
3220,MTA-L Camp Williams,Army Guard,Utah,-111.925017,40.431762,84045
3225,Tonopah Auxiliary Airfield Annex,AF Active,Nevada,-116.77654,37.804743,
3230,Dare County Range,AF Active,North Carolina,-75.84599,35.71023,27953
3235,Saylor Creek Air Force Range,AF Active,Idaho,-115.563661,42.740536,83604
3240,Lackland Training Annex,AF Active,Texas,-98.666518,29.369175,78227
3245,Keesler AFB,AF Active,Mississippi,-88.9246,30.4107,39534
3250,Travis AFB,AF Active,California,-121.942609,38.264875,94585
3255,Hunley Park Military FH,AF Active,South Carolina,-80.078499,32.894306,29404
3260,North Air Force Auxiliary Field,AF Active,South Carolina,-81.077067,33.603359,29112
3265,Charleston AFB,AF Active,South Carolina,-80.050441,32.899332,29404
3270,Charleston Defense Fuel Support Point,AF Active,South Carolina,-79.98328,32.912806,29410
3275,Scott AFB,AF Active,Illinois,-89.853691,38.541451,62258
3280,Tinker AFB,AF Active,Oklahoma,-97.392631,35.419645,73145
3285,Peterson AFB,AF Active,Colorado,-104.696534,38.822945,80916
3290,Buckley AFB,AF Active,Colorado,-104.757681,39.706657,80017
3295,Cape Canaveral AFS,AF Active,Florida,-80.570211,28.478318,
3300,Onizuka AFB,AF Active,California,-122.027917,37.404852,94089
3305,Ramey AF Solar Observatory Research Site,AF Active,Puerto Rico,-67.0991,18.509358,00662
3310,George AFB,AF Active,California,-117.376487,34.586124,92394
3315,Melrose Air Force Range,AF Active,New Mexico,-103.780358,34.284644,88118
3320,Cannon Meadows Housing Area,AF Active,New Mexico,-103.175702,34.445983,88101
3325,Brooks AFB,AF Active,Texas,-98.4394,29.3433,78235
3330,Kelly AFB,AF Active,Texas,-98.568904,29.383093,78226
3335,NAVBASE Guam,Navy Active,Guam,144.651841,13.427857,
3340,Eglin AFB Auxiliary Field #3,AF Active,Florida,-86.52576,30.65005,32542
3345,Plattsburg AFB,AF Active,New York,-73.462697,44.657383,12903
3350,Grissom AFB,AF Active,Indiana,-86.136067,40.649153,46914
3355,Pentagon Reservation,WHS,Virginia,-77.055921,38.870905,22202
3360,Mather AFB,AF Active,California,-121.280843,38.552747,95655
3365,McClellan AFB,AF Active,California,-121.401549,38.66132,95652
3370,March AFB,AF Active,California,-117.282018,33.896134,92508
3375,NWS Seal Beach Corona,Navy Active,California,-117.569475,33.923773,92860
3380,NB San Diego Home Terrace Condos,Navy Active,California,-117.096366,32.730876,92105
3385,NB San Diego Howard Gilmore,Navy Active,California,-117.018806,32.755078,91941
3390,NWS Seal Beach Det Concord,Navy Active,California,-121.984265,37.992467,94519
3395,NAVSUPPDET Monterey Det Magna Utah,Navy Active,Utah,-112.073316,40.678395,84044
3400,NB San Diego Broadway Complex,Navy Active,California,-117.172072,32.714069,92132
3405,NB Coronado Camp Morena,Navy Active,California,-116.518633,32.711885,91906
3410,NB Point Loma Chesterton Hsg,Navy Active,California,-117.162737,32.795384,92111
3415,NB San Diego Chollas Heights Hsg,Navy Active,California,-117.062311,32.740203,92115
3420,NB San Diego Dryside,Navy Active,California,-117.11948,32.684884,92136
3425,NB San Diego Eucalyptus Housing,Navy Active,California,-116.928129,32.878567,92040
3430,NB Point Loma Fleet ASW,Navy Active,California,-117.218444,32.724701,92147
3435,Hawthorne Nevada,Navy Active,Nevada,-118.649824,38.546047,89415
3440,NB San Diego Mission Gorge,Navy Active,California,-117.098649,32.797641,92124
3445,NB San Diego Murphy Canyon,Navy Active,California,-117.108006,32.810529,92124
3450,NB San Diego National City,Navy Active,California,-117.113282,32.672097,91950
3455,NOSC Alameda,Navy Reserve,California,-122.243991,37.773748,94501
3460,NB Point Loma Old Town,Navy Active,California,-117.197027,32.748658,92110
3465,NAVPHIBASE Seal Side,Navy Active,California,-117.167366,32.671423,92155
3470,NB San Diego Pomerado Terrace,Navy Active,California,-117.09516,32.899744,92131
3475,San Pedro Fuel Depot,Navy Active,California,-118.301039,33.773058,90731
3480,Santa Cruz Island,Navy Active,California,-119.745648,34.013744,93001
3485,NB Point Loma SPAWARSYSCEN,Navy Active,California,-117.249751,32.695639,92106
3490,NAS Fallon Target B-19,Navy Active,Nevada,-118.635994,39.171035,89406
3495,NAVSUPPDET Monterey Centerville Beach,Navy Active,California,-124.350552,40.563858,95536
3500,NB Coronado Lofgren Terrace,Navy Active,California,-116.988349,32.640967,91913
3505,NB Point Loma Admiral Hartman Housing 1,Navy Active,California,-117.227191,32.798527,92109
3510,NB Point Loma Admiral Hartman Housing 2,Navy Active,California,-117.225604,32.802874,92109
3515,NB Point Loma Admiral Hartman Housing 3,Navy Active,California,-117.227038,32.806362,92109
3520,NOSC LA,Navy Reserve,California,-118.249381,33.753085,90731
3525,NOSC LA N62103,Navy Reserve,California,-118.242113,34.069028,90012
3530,NOSC Sacramento,Navy Reserve,California,-121.400158,38.511836,95828
3535,NB San Diego Terrace View Villas,Navy Active,California,-117.107636,32.721412,92105
3540,Laguna Peak CA,Navy Active,California,-119.065083,34.10844,93033
3545,White Sands NM,Navy Active,New Mexico,-106.48558,32.378228,88002
3550,NB Coronado Silver Strand,Navy Active,California,-117.128172,32.596969,91932
3555,Former NAVPHIBASE Coronado,Navy Active,California,-117.161189,32.675369,92118
3560,Holtville Carrier LS,Navy Active,California,-115.150869,32.832725,92250
3565,NB San Diego Bayview Hills Housing,Navy Active,California,-117.061044,32.684911,92139
3570,San Nicolas Island,Navy Active,California,-119.507002,33.247147,93042
3575,NB Coronado Clev NF Survival Tra,Navy Active,California,-116.690641,33.347303,92086
3580,NWS Seal Beach Fallbrook California,Navy Active,California,-117.283123,33.358877,92028
3585,Port Hueneme,Navy Active,California,-119.208398,34.162823,93041
3590,NAVSUPPDET Monterey La Mesa Village,Navy Active,California,-121.879662,36.581591,93940
3595,NAVSUPPDET Monterey Navy School Annex,Navy Active,California,-121.854008,36.592504,93940
3600,NAVSUPPDET Monterey Dixon Transmitter Fac,Navy Active,California,-121.777067,38.372974,95620
3605,NAS Fallon Target B-17,Navy Active,Nevada,-118.23176,39.205446,89406
3610,NAS Fallon EW Range Fac,Navy Active,Nevada,-118.221945,39.346533,89406
3615,NAS Fallon Target B-16,Navy Active,Nevada,-118.889697,39.332388,89406
3620,NOSC Denver,Navy Reserve,Colorado,-104.743605,39.716624,80018
3625,NAS Fallon Target B-20,Navy Active,Nevada,-118.362819,39.884295,
3630,NAVPMOSSP Mtn View,Navy Active,California,-122.028412,37.41292,94089
3635,NAF El Centro,Navy Active,California,-115.668184,32.82537,92243
3640,NAS Fallon,Navy Active,Nevada,-118.704353,39.422181,89496
3645,NAS Lemoore,Navy Active,California,-119.934068,36.319087,93245
3650,NAWS China Lake,Navy Active,California,-117.626615,35.684931,93555
3655,NB Point Loma,Navy Active,California,-117.245712,32.696089,92106
3660,NB San Diego,Navy Active,California,-117.123021,32.675707,91950
3665,NAVBASE Ventura City Point Mugu,Navy Active,California,-119.110003,34.112556,93042
3670,San Clemente,Navy Active,California,-118.487567,32.902677,
3675,NWS Seal Beach,Navy Active,California,-118.064448,33.750295,
3680,NB Coronado Imperial Beach,Navy Active,California,-117.112011,32.562404,91932
3685,NAVSUPPDET Monterey,Navy Active,California,-121.8734,36.59734,93943
3690,NB Coronado,Navy Active,California,-117.206739,32.699126,92118
3695,Naval Medical Center San Diego,Navy Active,California,-117.145043,32.726269,92134
3700,Long Beach Fuel Complex,Navy Active,California,-118.23358,33.74156,90802
3705,Long Beach Golf Course,Navy Active,California,-118.043291,33.789422,92845
3710,Norwalk Fuel Complex,Navy Active,California,-118.067411,33.892716,90650
3715,Skaggs Island,Navy Active,California,-122.389084,38.197445,95476
3720,Estero Bay Fuel Complex,Navy Active,California,-120.863214,35.405698,93442
3725,Bolling AFB,AF Active,District of Columbia,-77.016801,38.840041,20032
3730,Silas B. Hays,Army Active,California,-121.765057,36.632824,93955
3735,Ord Military Community,Army Active,California,-121.765,36.6329,93955
3740,Highbluff Stagefield,Army Active,Alabama,-85.736264,31.150294,36344
3745,Runkle Stagefield,Army Active,Alabama,-86.089975,31.340099,36323
3750,Skelly Stagefield,Army Active,Alabama,-86.128342,31.28587,36453
3755,Hunt Stagefield,Army Active,Alabama,-85.579969,31.380177,36360
3760,Allen Stagefield,Army Active,Alabama,-85.650678,31.23043,36352
3765,Toth Stagefield,Army Active,Alabama,-85.559333,31.227576,36352
3770,Shell Basefield,Army Active,Alabama,-85.848753,31.363275,36330
3775,Goldberg Stagefield,Army Active,Alabama,-85.463091,31.415406,36350
3780,Cairns Basefield,Army Active,Alabama,-85.713744,31.277189,36322
3785,Brown (4B) Stagefield,Army Active,Alabama,-85.971905,31.385877,36323
3790,Stinson (5AB) Stagefield,Army Active,Alabama,-86.013491,31.359319,36323
3795,SAT COM,Army Active,California,-120.9,37.72,95361
3800,Pinon Canyon,Army Active,Colorado,-103.918065,37.497589,81059
3805,Fort Wainwright,Army Active,Alaska,-147.624596,64.824734,99703
3810,Anniston Army Depot,Army Active,Alabama,-85.969106,33.653025,36260
3815,Fort Rucker,Army Active,Alabama,-85.747477,31.404158,36362
3820,Redstone Arsenal,Army Active,Alabama,-86.661581,34.648448,35808
3825,Fort Huachuca,Army Active,Arizona,-110.328948,31.567602,85613
3830,Fort Hunter Liggett,Army Reserve,California,-121.253947,35.955626,93928
3835,NTC and Fort Irwin,Army Active,California,-116.631634,35.374775,
3840,Pine Bluff Arsenal,Army Active,Arkansas,-92.085165,34.325974,71602
3845,Sierra Army Depot,Army Active,California,-120.140141,40.214604,
3850,Yuma Proving Ground,Army Active,Arizona,-114.353851,32.883244,85365
3855,Fort Richardson,Army Active,Alaska,-149.638984,61.262895,99505
3860,Mississippi AAP,Army Active,Mississippi,-89.603892,30.399279,39556
3865,Presidio Of Monterey,Army Active,California,-121.906707,36.605819,93944
3870,Fort Ord,Army Active,California,-121.811663,36.637226,93955
3875,Riverbank AAP,Army Active,California,-120.914378,37.717668,95357
3880,Seward Recreation Area,Army Active,Alaska,-149.3,60.3,99664
3885,Whittier Anchorage Pipeline,Army Active,Alaska,-149.692081,61.251389,99505
3890,Black Rapids Training Area,Army Active,Alaska,-145.814748,63.504793,99737
3895,Fairbanks Eielson Pipeline,Army Active,Alaska,-147.8,64.83,99709
3900,Gerstle River Arctic Test Site,Army Active,Alaska,-145.164936,63.781091,99737
3905,Yukon Command TS,Army Active,Alaska,-146.590743,64.701583,
3910,Defense Distribution Region West Sharpe Site,Army Active,California,-121.26899,37.840534,95336
3915,Donnelly Training Area,Army Active,Alaska,-145.634779,63.957436,99731
3920,Fort Greely,Army Active,Alaska,-146.440137,63.919723,
3925,Rocky Mountain Arsenal,Army Active,Colorado,-104.849064,39.827631,80239
3930,Fort Carson,Army Active,Colorado,-104.82665,38.558785,80926
3935,Parks Reserve Forces Training Area,Army Reserve,California,-121.895987,37.730471,94568
3940,Haines Terminal,Army Active,Alaska,-135.3,59.23,99827
3945,10C Stagefield,Army Active,Alabama,-85.93,31.4,36351
3950,NAVBASE Guam Tiyan,Navy Active,Guam,144.79472,13.4825,96913
3955,NAVBASE Guam Finegayan,Navy Active,Guam,144.84502,13.591599,
3960,Norwalk 2,AF Reserve,California,-118.08265,33.90307,90650
3965,Cincinnati Defense Fuel Support Point,AF Active,Ohio,-84.5014,39.1064,45202
3970,McClellan FH Annex,AF Active,California,-121.387699,38.712348,95843
3975,Andersen Communications Annex #2,AF Active,Guam,144.81255,13.4564,
3980,Andersen Supply Annex,AF Active,Guam,144.809824,13.509757,96913
3985,Andersen Petrol Product Storage Annex #2,AF Active,Guam,144.8111,13.51791,96913
3990,Andersen AFS,AF Active,Guam,144.914794,13.535921,
3995,Andersen Petrol Product Storage Annex #1,AF Active,Guam,144.86234,13.5867,
4000,Chanute AFB,AF Active,Illinois,-88.145839,40.29356,61866
4005,Davis Communications Annex,AF Active,California,-121.7397,38.5452,95616
4010,Air Force Plant #59,AF Active,New York,-76.0035,42.1768,13790
4015,NAS Moffett Field,AF Guard,California,-122.045036,37.41188,94043
4020,Andersen AFB,AF Active,Guam,144.908832,13.589379,
4025,Andersen Administration Annex,AF Active,Guam,144.866158,13.50852,
4030,NAVPHIBASE Little Creek,Navy Active,Virginia,-76.163168,36.916788,23455
4035,Glenn Forest,Navy Active,Maryland,-76.449498,38.254978,20653
4040,Webster Field,Navy Active,Maryland,-76.428756,38.144614,20684
4045,National Naval Medical Center Bethesda,Navy Active,Maryland,-77.090437,39.001958,20814
4050,NAS Patuxent River,Navy Active,Maryland,-76.420017,38.281884,20653
4055,Fort Story,Navy Active,Virginia,-76.019386,36.923607,23451
4060,Pedricktown Support Facility,Army Reserve,New Jersey,-75.447778,39.752824,08067
4065,Pueblo Chemical Depot,Army Active,Colorado,-104.332444,38.317174,81006
4070,Devens Reserve Forces Training Area,Army Reserve,Massachusetts,-71.625838,42.523252,01434
4075,Defense Distribution Region West Tracy,Army Active,California,-121.392348,37.715873,95304
4080,NOSC-MCRC Bessemer Al,Navy Reserve,Alabama,-86.81,33.51694,35203
4085,NIOC Sugar Grove,Navy Active,West Virginia,-79.272385,38.571688,26815
4090,Toledo/Exp Airport,AF Guard,Ohio,-83.792285,41.58649,43542
4095,MTCH Camp Guernsey,Army Guard,Wyoming,-104.74231,42.26194,82214
4100,Camp Rapid,Army Guard,South Dakota,-103.270077,44.081451,57702
4105,MTA Camp Rilea,Army Guard,Oregon,-123.932366,46.123627,97146
4110,Camp Perry TS (CTC),Army Guard,Ohio,-83.027904,41.550138,43452
4115,Camp Joseph T Robinson,Army Guard,Arkansas,-92.284296,34.821852,72199
4120,Camp Minden TS,Army Guard,Louisiana,-93.416826,32.573499,71055
4125,Camp Ripley,Army Guard,Minnesota,-94.357791,46.081025,56345
4130,Stones Ranch Military Reservation,Army Guard,Connecticut,-72.274839,41.367822,06333
4135,ITC Camp San Luis Obisbo,Army Guard,California,-120.729764,35.324657,93405
4140,MTC Camp Blanding,Army Guard,Florida,-81.982939,29.969796,32091
4145,CTC Camp Dawson-Kingwood,Army Guard,West Virginia,-79.673537,39.446053,26764
4150,Camp Maxey,Army Guard,Texas,-95.560189,33.799003,75473
4155,MTC-H Camp Grayling,Army Guard,Michigan,-84.774811,44.632279,49738
4160,NG Beauregard Training Range,Army Guard,Louisiana,-92.295501,31.437577,71328
4165,Camp Grafton,Army Guard,North Dakota,-98.659617,47.686264,58464
4170,Marseilles (MTA Training Area),Army Guard,Illinois,-88.680333,41.288427,61341
